{"latitude": "42.6661417", "partner_id": 12, "name": "Kristian Mandradzhiev", "longitude": "23.293435"}
{"latitude": "42.7034111", "partner_id": 1, "name": "Branimira Shrilyanova", "longitude": "23.4862259"}
{"latitude": "42.1268151", "partner_id": 2, "name": "Tsveta Dancheva", "longitude": "24.7234766"}
{"latitude": "42.6264989", "partner_id": 3, "name": "Greta Petkova", "longitude": "23.4097679"}
{"latitude": "42.6048396", "partner_id": 28, "name": "Yoana Dolutarova", "longitude": "23.4793636"}
{"latitude": "41.9279411", "partner_id": 7, "name": "Stanislav Milev", "longitude": "25.9083249"}
{"latitude": "42.7047197", "partner_id": 8, "name": "Kalina Antonova", "longitude": "23.395183"}
{"latitude": "41.5295527", "partner_id": 26, "name": "Panteley Boyadzhiev", "longitude": "25.4113927"}
{"latitude": "42.6049054", "partner_id": 27, "name": "Konstantin Bakalov", "longitude": "23.0519972"}
{"latitude": "42.7724527", "partner_id": 6, "name": "Marin Ranchev", "longitude": "23.3558937"}
{"latitude": "42.6634102", "partner_id": 9, "name": "Daniel Stefanov", "longitude": "23.2681108"}
{"latitude": "42.7242457", "partner_id": 10, "name": "Bilyana Kalcheva", "longitude": "23.2441588"}
{"latitude": "42.6893403", "partner_id": 4, "name": "Alexander Yordanov", "longitude": "27.7060827"}
{"latitude": "42.2676642", "partner_id": 5, "name": "Gergana Dimitrova", "longitude": "23.6067589"}
{"latitude": "42.6612057", "partner_id": 11, "name": "Vladimir Delibashev", "longitude": "23.4147793"}
{"latitude": "43.2232383", "partner_id": 31, "name": "Nikola Kolev", "longitude": "27.8828709"}
{"latitude": "43", "partner_id": 13, "name": "Pavel Stefanov", "longitude": "24"}
{"latitude": "42.6843963", "partner_id": 14, "name": "Hristo Dimitrov", "longitude": "23.1631643"}
{"latitude": "42.8192476", "partner_id": 15, "name": "Georgi Dzhangozov", "longitude": "27.881862"}
{"latitude": "42.6405549", "partner_id": 16, "name": "Ana Pavlova", "longitude": "23.3344239"}
{"latitude": "42.6545333", "partner_id": 17, "name": "Dimitar Pavlov", "longitude": "23.4078409"}
{"latitude": "42.5854492", "partner_id": 39, "name": "Zlatin Kostov", "longitude": "23.4156356"}
{"latitude": "42.2608727", "partner_id": 18, "name": "Vladimir Savov", "longitude": "23.1252358"}
{"latitude": "42.8182819", "partner_id": 24, "name": "Rada Ilieva", "longitude": "23.3608871"}
{"latitude": "42.7571084", "partner_id": 19, "name": "Butterfree Crackersprout", "longitude": "23.4299324"}
{"latitude": "42.7232749", "partner_id": 20, "name": "Oscarbait Crackersprout", "longitude": "23.2586465"}
{"latitude": "42.7074332", "partner_id": 21, "name": "Bendydick Chickenstrips", "longitude": "23.1480301"}
{"latitude": "42.8884016", "partner_id": 22, "name": "Billybong Clombyclomp", "longitude": "24.7147034"}
{"latitude": "42.4229411", "partner_id": 29, "name": "Wellington Crackerjack", "longitude": "25.6399245"}
{"latitude": "42.6479375", "partner_id": 30, "name": "Bunsenburner Crumplehorn", "longitude": "23.2782796"}
{"latitude": "43.2023394", "partner_id": 23, "name": "Buckminster Fullerene", "longitude": "27.9086398"}
{"latitude": "42.6604717", "partner_id": 25, "name": "Bombadil Rivendell", "longitude": "23.4641794"}
